[{"model": "server.hospital", "pk": 1, "fields": {"name": "Apollo Hospital", "phone": "2319273466", "location": 1}}, {"model": "server.hospital", "pk": 2, "fields": {"name": "Fortis Hospital", "phone": "0430187328", "location": 2}}, {"model": "server.hospital", "pk": 3, "fields": {"name": "Max Hospital", "phone": "8482487391", "location": 3}}, {"model": "server.hospital", "pk": 4, "fields": {"name": "Manipal Hospital", "phone": "3355840522", "location": 4}}, {"model": "server.hospital", "pk": 5, "fields": {"name": "Medanta Hospital", "phone": "7409875026", "location": 5}}, {"model": "server.hospital", "pk": 6, "fields": {"name": "AIIMS", "phone": "8287052877", "location": 6}}, {"model": "server.hospital", "pk": 7, "fields": {"name": "Ruby Hall Clinic", "phone": "1697490321", "location": 7}}, {"model": "server.hospital", "pk": 8, "fields": {"name": "Lilavati Hospital", "phone": "3962426496", "location": 8}}, {"model": "server.hospital", "pk": 9, "fields": {"name": "Jaslok Hospital", "phone": "1315346490", "location": 9}}, {"model": "server.hospital", "pk": 10, "fields": {"name": "Sir H.N. Reliance Foundation Hospital", "phone": "5055908333", "location": 10}}]